[
  {
    "location": "웨슬리홀",
    "team": "남 1",
    "name": "김현",
    "phone": "6903",
    "mapImage": "images/1102 배치도.jpg"
  },
  {
    "location": "웨슬리홀",
    "team": "남 1",
    "name": "박태훈",
    "phone": "4172",
    "mapImage": "images/1102 배치도.jpg"
  },
  {
    "location": "웨슬리홀",
    "team": "남 1",
    "name": "심재원",
    "phone": "3259",
    "mapImage": "images/1102 배치도.jpg"
  },
  {
    "location": "웨슬리홀",
    "team": "남 1",
    "name": "이명찬",
    "phone": "3930"
  },
  {
    "location": "웨슬리홀",
    "team": "남 1",
    "name": "이우석",
    "phone": "3302"
  },
  {
    "location": "웨슬리홀",
    "team": "남 1",
    "name": "이정훈",
    "phone": "9174"
  },
  {
    "location": "웨슬리홀",
    "team": "남 1",
    "name": "임주영",
    "phone": "2482"
  },
  {
    "location": "웨슬리홀",
    "team": "남 2",
    "name": "김규민",
    "phone": "3902"
  },
  {
    "location": "웨슬리홀",
    "team": "남 2",
    "name": "김주경",
    "phone": "1169"
  },
  {
    "location": "웨슬리홀",
    "team": "남 2",
    "name": "이성규",
    "phone": "4335"
  },
  {
    "location": "웨슬리홀",
    "team": "남 2",
    "name": "이은준",
    "phone": "8089"
  },
  {
    "location": "웨슬리홀",
    "team": "남 2",
    "name": "이응천",
    "phone": "1879"
  },
  {
    "location": "웨슬리홀",
    "team": "남 2",
    "name": "장정훈",
    "phone": "8541"
  },
  {
    "location": "웨슬리홀",
    "team": "남 2",
    "name": "정보석",
    "phone": "8596"
  },
  {
    "location": "웨슬리홀",
    "team": "남 2",
    "name": "최진원",
    "phone": "1187"
  },
  {
    "location": "웨슬리홀",
    "team": "남 2",
    "name": "박성곤",
    "phone": "6863"
  },
  {
    "location": "칼빈 채플",
    "team": "남 3",
    "name": "신현우",
    "phone": "6570"
  },
  {
    "location": "칼빈 채플",
    "team": "남 3",
    "name": "요코",
    "phone": "1561"
  },
  {
    "location": "칼빈 채플",
    "team": "남 3",
    "name": "이승진",
    "phone": "9177"
  },
  {
    "location": "칼빈 채플",
    "team": "남 3",
    "name": "이정민",
    "phone": "4660"
  },
  {
    "location": "칼빈 채플",
    "team": "남 3",
    "name": "이지형",
    "phone": "4089"
  },
  {
    "location": "칼빈 채플",
    "team": "남 3",
    "name": "정윤재",
    "phone": "9450"
  },
  {
    "location": "칼빈 채플",
    "team": "남 3",
    "name": "신태환",
    "phone": "6820"
  },
  {
    "location": "칼빈 채플",
    "team": "남 4",
    "name": "노대벽",
    "phone": "7113"
  },
  {
    "location": "칼빈 채플",
    "team": "남 4",
    "name": "이훈",
    "phone": "5531"
  },
  {
    "location": "칼빈 채플",
    "team": "남 4",
    "name": "문상철",
    "phone": "3799"
  },
  {
    "location": "칼빈 채플",
    "team": "남 4",
    "name": "이건진",
    "phone": "3849"
  },
  {
    "location": "칼빈 채플",
    "team": "남 4",
    "name": "이동훈",
    "phone": "1259"
  },
  {
    "location": "칼빈 채플",
    "team": "남 4",
    "name": "이주영",
    "phone": "9515"
  },
  {
    "location": "칼빈 채플",
    "team": "남 4",
    "name": "전자룡",
    "phone": "7684"
  },
  {
    "location": "칼빈 채플",
    "team": "남 4",
    "name": "조재명",
    "phone": "8606"
  },
  {
    "location": "칼빈 채플",
    "team": "남 5",
    "name": "김인래",
    "phone": "7346"
  },
  {
    "location": "칼빈 채플",
    "team": "남 5",
    "name": "김희철",
    "phone": "2382"
  },
  {
    "location": "칼빈 채플",
    "team": "남 5",
    "name": "이동경",
    "phone": "3921"
  },
  {
    "location": "칼빈 채플",
    "team": "남 5",
    "name": "이성원",
    "phone": "1307"
  },
  {
    "location": "칼빈 채플",
    "team": "남 5",
    "name": "진수현",
    "phone": "1531"
  },
  {
    "location": "칼빈 채플",
    "team": "남 5",
    "name": "최병호",
    "phone": "9070"
  },
  {
    "location": "칼빈 채플",
    "team": "남 5",
    "name": "박혁거",
    "phone": "3828"
  },
  {
    "location": "칼빈 채플",
    "team": "남 6",
    "name": "구관서",
    "phone": "8036"
  },
  {
    "location": "칼빈 채플",
    "team": "남 6",
    "name": "김시호",
    "phone": "2338"
  },
  {
    "location": "칼빈 채플",
    "team": "남 6",
    "name": "박세훈",
    "phone": "0764"
  },
  {
    "location": "칼빈 채플",
    "team": "남 6",
    "name": "서용인",
    "phone": "6092"
  },
  {
    "location": "칼빈 채플",
    "team": "남 6",
    "name": "이종범",
    "phone": "3302"
  },
  {
    "location": "칼빈 채플",
    "team": "남 6",
    "name": "이주경",
    "phone": "5469"
  },
  {
    "location": "칼빈 채플",
    "team": "남 6",
    "name": "임종민",
    "phone": "4992"
  },
  {
    "location": "칼빈 채플",
    "team": "남 6",
    "name": "한필승",
    "phone": "4682"
  },
  {
    "location": "칼빈 채플",
    "team": "남 7",
    "name": "김수철",
    "phone": "6850"
  },
  {
    "location": "칼빈 채플",
    "team": "남 7",
    "name": "박승현",
    "phone": "3324"
  },
  {
    "location": "칼빈 채플",
    "team": "남 7",
    "name": "오현진",
    "phone": "9280"
  },
  {
    "location": "칼빈 채플",
    "team": "남 7",
    "name": "김신철",
    "phone": "3105"
  },
  {
    "location": "칼빈 채플",
    "team": "남 7",
    "name": "신중철",
    "phone": "2104"
  },
  {
    "location": "칼빈 채플",
    "team": "남 7",
    "name": "안응진",
    "phone": "6147"
  },
  {
    "location": "칼빈 채플",
    "team": "남 7",
    "name": "안지홍",
    "phone": "0947"
  },
  {
    "location": "칼빈 채플",
    "team": "남 7",
    "name": "이광재",
    "phone": "7421"
  },
  {
    "location": "칼빈 채플",
    "team": "남 8",
    "name": "김앙직",
    "phone": "6903"
  },
  {
    "location": "칼빈 채플",
    "team": "남 8",
    "name": "이호건",
    "phone": "1446"
  },
  {
    "location": "칼빈 채플",
    "team": "남 8",
    "name": "김종철",
    "phone": "2518"
  },
  {
    "location": "칼빈 채플",
    "team": "남 8",
    "name": "안상수",
    "phone": "4122"
  },
  {
    "location": "칼빈 채플",
    "team": "남 8",
    "name": "양종문",
    "phone": "8010"
  },
  {
    "location": "칼빈 채플",
    "team": "남 8",
    "name": "정민",
    "phone": "8708"
  },
  {
    "location": "칼빈 채플",
    "team": "남 8",
    "name": "김태원",
    "phone": "1585"
  },
  {
    "location": "칼빈 채플",
    "team": "남 8",
    "name": "현명진",
    "phone": "3600"
  },
  {
    "location": "칼빈 채플",
    "team": "남 9",
    "name": "김정일",
    "phone": "6497"
  },
  {
    "location": "칼빈 채플",
    "team": "남 9",
    "name": "성상경",
    "phone": "3602"
  },
  {
    "location": "칼빈 채플",
    "team": "남 9",
    "name": "이경화",
    "phone": "1679"
  },
  {
    "location": "칼빈 채플",
    "team": "남 9",
    "name": "이금용",
    "phone": "7032"
  },
  {
    "location": "칼빈 채플",
    "team": "남 9",
    "name": "이상선",
    "phone": "6419"
  },
  {
    "location": "칼빈 채플",
    "team": "남 9",
    "name": "정연백",
    "phone": "6280"
  },
  {
    "location": "웨슬리홀",
    "team": "여 1",
    "name": "정혜빈",
    "phone": "2594"
  },
  {
    "location": "웨슬리홀",
    "team": "여 1",
    "name": "이예지",
    "phone": "9703"
  },
  {
    "location": "웨슬리홀",
    "team": "여 1",
    "name": "김은성",
    "phone": "5259"
  },
  {
    "location": "웨슬리홀",
    "team": "여 1",
    "name": "황예원",
    "phone": "9859"
  },
  {
    "location": "웨슬리홀",
    "team": "여 1",
    "name": "한정민",
    "phone": "9496"
  },
  {
    "location": "웨슬리홀",
    "team": "여 1",
    "name": "이예은",
    "phone": "7728"
  },
  {
    "location": "웨슬리홀",
    "team": "여 1",
    "name": "홍아람",
    "phone": "7389"
  },
  {
    "location": "웨슬리홀",
    "team": "여 1",
    "name": "강한빛",
    "phone": "7629"
  },
  {
    "location": "웨슬리홀",
    "team": "여 1",
    "name": "이세린",
    "phone": "4163"
  },
  {
    "location": "웨슬리홀",
    "team": "여 2",
    "name": "이새현",
    "phone": "3218"
  },
  {
    "location": "웨슬리홀",
    "team": "여 2",
    "name": "김예린",
    "phone": "6903"
  },
  {
    "location": "웨슬리홀",
    "team": "여 2",
    "name": "이주영",
    "phone": "9515"
  },
  {
    "location": "웨슬리홀",
    "team": "여 2",
    "name": "이세령",
    "phone": "2488"
  },
  {
    "location": "웨슬리홀",
    "team": "여 2",
    "name": "최미소",
    "phone": "0177"
  },
  {
    "location": "웨슬리홀",
    "team": "여 2",
    "name": "김병지",
    "phone": "6903"
  },
  {
    "location": "웨슬리홀",
    "team": "여 2",
    "name": "이아림",
    "phone": "5379"
  },
  {
    "location": "웨슬리홀",
    "team": "여 2",
    "name": "신재인",
    "phone": "7558"
  },
  {
    "location": "웨슬리홀",
    "team": "여 2",
    "name": "박소윤",
    "phone": "7785"
  },
  {
    "location": "웨슬리홀",
    "team": "여 2",
    "name": "권예지",
    "phone": "3245"
  },
  {
    "location": "자모 영아실",
    "team": "여 3",
    "name": "김세진",
    "phone": "8930"
  },
  {
    "location": "자모 영아실",
    "team": "여 3",
    "name": "이에벤",
    "phone": "7565"
  },
  {
    "location": "자모 영아실",
    "team": "여 3",
    "name": "김지현",
    "phone": "3272"
  },
  {
    "location": "자모 영아실",
    "team": "여 3",
    "name": "이지혜",
    "phone": "4847"
  },
  {
    "location": "자모 영아실",
    "team": "여 3",
    "name": "박아름",
    "phone": "9493"
  },
  {
    "location": "자모 영아실",
    "team": "여 3",
    "name": "김세정",
    "phone": "2526"
  },
  {
    "location": "자모 영아실",
    "team": "여 3",
    "name": "김혜원",
    "phone": "1288"
  },
  {
    "location": "자모 영아실",
    "team": "여 3",
    "name": "박다현",
    "phone": "5864"
  },
  {
    "location": "자모 영아실",
    "team": "여 3",
    "name": "김초혜",
    "phone": "8457"
  },
  {
    "location": "웨슬리홀",
    "team": "여 4",
    "name": "정지은",
    "phone": "1324"
  },
  {
    "location": "웨슬리홀",
    "team": "여 4",
    "name": "황유나",
    "phone": "7398"
  },
  {
    "location": "웨슬리홀",
    "team": "여 4",
    "name": "최다은",
    "phone": "2183"
  },
  {
    "location": "웨슬리홀",
    "team": "여 4",
    "name": "안에스더",
    "phone": "1270"
  },
  {
    "location": "웨슬리홀",
    "team": "여 4",
    "name": "박선영",
    "phone": "2107"
  },
  {
    "location": "웨슬리홀",
    "team": "여 4",
    "name": "정수정",
    "phone": "5982"
  },
  {
    "location": "웨슬리홀",
    "team": "여 4",
    "name": "최이서",
    "phone": "3244"
  },
  {
    "location": "웨슬리홀",
    "team": "여 4",
    "name": "김아현",
    "phone": "0610"
  },
  {
    "location": "웨슬리홀",
    "team": "여 4",
    "name": "이윤미",
    "phone": "2388"
  },
  {
    "location": "웨슬리홀",
    "team": "여 5",
    "name": "권지혜",
    "phone": "0345"
  },
  {
    "location": "웨슬리홀",
    "team": "여 5",
    "name": "이선주",
    "phone": "0915"
  },
  {
    "location": "웨슬리홀",
    "team": "여 5",
    "name": "이지혜",
    "phone": "2104"
  },
  {
    "location": "웨슬리홀",
    "team": "여 5",
    "name": "조윤영",
    "phone": "8789"
  },
  {
    "location": "웨슬리홀",
    "team": "여 5",
    "name": "김혜민",
    "phone": "3729"
  },
  {
    "location": "웨슬리홀",
    "team": "여 5",
    "name": "정민주",
    "phone": "9355"
  },
  {
    "location": "웨슬리홀",
    "team": "여 5",
    "name": "민묘희",
    "phone": "4541"
  },
  {
    "location": "웨슬리홀",
    "team": "여 5",
    "name": "김재은",
    "phone": "3443"
  },
  {
    "location": "웨슬리홀",
    "team": "여 5",
    "name": "이한빛",
    "phone": "7346"
  },
  {
    "location": "칼빈 채플",
    "team": "여 6",
    "name": "노다희",
    "phone": "6378"
  },
  {
    "location": "칼빈 채플",
    "team": "여 6",
    "name": "김소라",
    "phone": "8541"
  },
  {
    "location": "칼빈 채플",
    "team": "여 6",
    "name": "윤희온",
    "phone": "9009"
  },
  {
    "location": "칼빈 채플",
    "team": "여 6",
    "name": "조혜진",
    "phone": "5698"
  },
  {
    "location": "칼빈 채플",
    "team": "여 6",
    "name": "이효선",
    "phone": "3913"
  },
  {
    "location": "칼빈 채플",
    "team": "여 6",
    "name": "박소영",
    "phone": "0872"
  },
  {
    "location": "칼빈 채플",
    "team": "여 6",
    "name": "김지혜",
    "phone": "0621"
  },
  {
    "location": "칼빈 채플",
    "team": "여 6",
    "name": "박미영",
    "phone": "8570"
  },
  {
    "location": "칼빈 채플",
    "team": "여 7",
    "name": "신은혜",
    "phone": "7567"
  },
  {
    "location": "칼빈 채플",
    "team": "여 7",
    "name": "이한빛",
    "phone": "7346"
  },
  {
    "location": "칼빈 채플",
    "team": "여 7",
    "name": "김희재",
    "phone": "1107"
  },
  {
    "location": "칼빈 채플",
    "team": "여 7",
    "name": "김지영",
    "phone": "3014"
  },
  {
    "location": "칼빈 채플",
    "team": "여 7",
    "name": "박수영",
    "phone": "1347"
  },
  {
    "location": "칼빈 채플",
    "team": "여 7",
    "name": "김민선",
    "phone": "3577"
  },
  {
    "location": "칼빈 채플",
    "team": "여 7",
    "name": "오경은",
    "phone": "3627"
  },
  {
    "location": "칼빈 채플",
    "team": "여 8",
    "name": "박해정",
    "phone": "7421"
  },
  {
    "location": "칼빈 채플",
    "team": "여 8",
    "name": "박예림",
    "phone": "1109"
  },
  {
    "location": "칼빈 채플",
    "team": "여 8",
    "name": "이정란",
    "phone": "3404"
  },
  {
    "location": "칼빈 채플",
    "team": "여 8",
    "name": "방승희",
    "phone": "4580"
  },
  {
    "location": "칼빈 채플",
    "team": "여 8",
    "name": "양희재",
    "phone": "3799"
  },
  {
    "location": "칼빈 채플",
    "team": "여 8",
    "name": "이다영",
    "phone": "0422"
  },
  {
    "location": "칼빈 채플",
    "team": "여 9",
    "name": "정은주",
    "phone": "8036"
  },
  {
    "location": "칼빈 채플",
    "team": "여 9",
    "name": "김경선",
    "phone": "3962"
  },
  {
    "location": "칼빈 채플",
    "team": "여 9",
    "name": "정은지",
    "phone": "3712"
  },
  {
    "location": "칼빈 채플",
    "team": "여 9",
    "name": "김선미",
    "phone": "4032"
  },
  {
    "location": "칼빈 채플",
    "team": "여 9",
    "name": "김가은",
    "phone": "4334"
  },
  {
    "location": "칼빈 채플",
    "team": "여 9",
    "name": "송보라",
    "phone": "7611"
  },
  {
    "location": "칼빈 채플",
    "team": "여 9",
    "name": "안윤정",
    "phone": "1516"
  },
  {
    "location": "칼빈 채플",
    "team": "여 9",
    "name": "박아름",
    "phone": "3828"
  },
  {
    "location": "칼빈 채플",
    "team": "여 10",
    "name": "김용자",
    "phone": "0082"
  },
  {
    "location": "칼빈 채플",
    "team": "여 10",
    "name": "오현순",
    "phone": "0286"
  },
  {
    "location": "칼빈 채플",
    "team": "여 10",
    "name": "윤경선",
    "phone": "2239"
  },
  {
    "location": "칼빈 채플",
    "team": "여 10",
    "name": "김미영",
    "phone": "1379"
  },
  {
    "location": "칼빈 채플",
    "team": "여 10",
    "name": "김애영",
    "phone": "2005"
  },
  {
    "location": "칼빈 채플",
    "team": "여 10",
    "name": "이자은",
    "phone": "8313"
  },
  {
    "location": "칼빈 채플",
    "team": "여 10",
    "name": "장윤경",
    "phone": "2104"
  },
  {
    "location": "칼빈 채플",
    "team": "여 10",
    "name": "안은미",
    "phone": "3715"
  },
  {
    "location": "칼빈 채플",
    "team": "여 11",
    "name": "이재정",
    "phone": "1288"
  },
  {
    "location": "칼빈 채플",
    "team": "여 11",
    "name": "이가비",
    "phone": "2395"
  },
  {
    "location": "칼빈 채플",
    "team": "여 11",
    "name": "김선덕",
    "phone": "7822"
  },
  {
    "location": "칼빈 채플",
    "team": "여 11",
    "name": "이청",
    "phone": "5179"
  },
  {
    "location": "칼빈 채플",
    "team": "여 11",
    "name": "이경은",
    "phone": "3534"
  },
  {
    "location": "칼빈 채플",
    "team": "여 11",
    "name": "이인아",
    "phone": "1461"
  },
  {
    "location": "칼빈 채플",
    "team": "여 11",
    "name": "이희승",
    "phone": "3564"
  },
  {
    "location": "칼빈 채플",
    "team": "여 12",
    "name": "안은지",
    "phone": "4572"
  },
  {
    "location": "칼빈 채플",
    "team": "여 12",
    "name": "문명진",
    "phone": "1673"
  },
  {
    "location": "칼빈 채플",
    "team": "여 12",
    "name": "김선희",
    "phone": "1204"
  },
  {
    "location": "칼빈 채플",
    "team": "여 12",
    "name": "이지영",
    "phone": "0365"
  },
  {
    "location": "칼빈 채플",
    "team": "여 12",
    "name": "정일",
    "phone": "0613"
  },
  {
    "location": "칼빈 채플",
    "team": "여 12",
    "name": "최선희",
    "phone": "6903"
  },
  {
    "location": "칼빈 채플",
    "team": "여 12",
    "name": "장정희",
    "phone": "1302"
  },
  {
    "location": "칼빈 채플",
    "team": "여 12",
    "name": "곽성미",
    "phone": "6476"
  },
  {
    "location": "칼빈 채플",
    "team": "여 13",
    "name": "박영아",
    "phone": "2194"
  },
  {
    "location": "칼빈 채플",
    "team": "여 13",
    "name": "이한나",
    "phone": "9070"
  },
  {
    "location": "칼빈 채플",
    "team": "여 13",
    "name": "오인선",
    "phone": "6850"
  },
  {
    "location": "칼빈 채플",
    "team": "여 13",
    "name": "이선경",
    "phone": "7485"
  },
  {
    "location": "칼빈 채플",
    "team": "여 13",
    "name": "이주성",
    "phone": "9774"
  },
  {
    "location": "칼빈 채플",
    "team": "여 13",
    "name": "노미정",
    "phone": "0153"
  },
  {
    "location": "칼빈 채플",
    "team": "여 13",
    "name": "이유진",
    "phone": "1780"
  },
  {
    "location": "칼빈 채플",
    "team": "여 14",
    "name": "고숙희",
    "phone": "5790"
  },
  {
    "location": "칼빈 채플",
    "team": "여 14",
    "name": "이경아",
    "phone": "4992"
  },
  {
    "location": "칼빈 채플",
    "team": "여 14",
    "name": "유근영",
    "phone": "4064"
  },
  {
    "location": "칼빈 채플",
    "team": "여 14",
    "name": "정지애",
    "phone": "1585"
  },
  {
    "location": "칼빈 채플",
    "team": "여 14",
    "name": "이정미",
    "phone": "3124"
  },
  {
    "location": "칼빈 채플",
    "team": "여 14",
    "name": "김현아",
    "phone": "0639"
  },
  {
    "location": "칼빈 채플",
    "team": "여 14",
    "name": "문정민",
    "phone": "1879"
  },
  {
    "location": "칼빈 채플",
    "team": "여 15",
    "name": "공정미",
    "phone": "9149"
  },
  {
    "location": "칼빈 채플",
    "team": "여 15",
    "name": "김정애",
    "phone": "4945"
  },
  {
    "location": "칼빈 채플",
    "team": "여 15",
    "name": "김진희",
    "phone": "7420"
  },
  {
    "location": "칼빈 채플",
    "team": "여 15",
    "name": "양경숙",
    "phone": "4286"
  },
  {
    "location": "칼빈 채플",
    "team": "여 15",
    "name": "유선미",
    "phone": "6280"
  },
  {
    "location": "칼빈 채플",
    "team": "여 15",
    "name": "이가영",
    "phone": "6857"
  },
  {
    "location": "칼빈 채플",
    "team": "여 15",
    "name": "국승숙",
    "phone": "6299"
  },
  {
    "location": "칼빈 채플",
    "team": "여 15",
    "name": "이진선",
    "phone": "8182"
  },
  {
    "location": "칼빈 채플",
    "team": "여 16",
    "name": "김애란",
    "phone": "5115"
  },
  {
    "location": "칼빈 채플",
    "team": "여 16",
    "name": "이경은",
    "phone": "3534"
  },
  {
    "location": "칼빈 채플",
    "team": "여 16",
    "name": "정형숙",
    "phone": "0708"
  },
  {
    "location": "칼빈 채플",
    "team": "여 16",
    "name": "박소라",
    "phone": "6607"
  },
  {
    "location": "칼빈 채플",
    "team": "여 16",
    "name": "장미영",
    "phone": "8257"
  },
  {
    "location": "칼빈 채플",
    "team": "여 16",
    "name": "김애수",
    "phone": "7290"
  },
  {
    "location": "칼빈 채플",
    "team": "여 16",
    "name": "권숙경",
    "phone": "3602"
  },
  {
    "location": "칼빈 채플",
    "team": "여 16",
    "name": "김현숙",
    "phone": "9881"
  },
  {
    "location": "칼빈 채플",
    "team": "여 16",
    "name": "김숙경",
    "phone": "8909"
  },
  {
    "location": "칼빈 채플",
    "team": "여 16",
    "name": "김옥경",
    "phone": "1556"
  },
  {
    "location": "칼빈 채플",
    "team": "여 17",
    "name": "권지선",
    "phone": "2654"
  },
  {
    "location": "칼빈 채플",
    "team": "여 17",
    "name": "이경희",
    "phone": "1225"
  },
  {
    "location": "칼빈 채플",
    "team": "여 17",
    "name": "이향숙",
    "phone": "5491"
  },
  {
    "location": "칼빈 채플",
    "team": "여 17",
    "name": "오명복",
    "phone": "7558"
  },
  {
    "location": "칼빈 채플",
    "team": "여 17",
    "name": "이옥자",
    "phone": "8924"
  },
  {
    "location": "칼빈 채플",
    "team": "여 17",
    "name": "조순옥",
    "phone": "0660"
  },
  {
    "location": "칼빈 채플",
    "team": "여 17",
    "name": "이수아",
    "phone": "9184"
  },
  {
    "location": "칼빈 채플",
    "team": "여 17",
    "name": "차병옥",
    "phone": "6497"
  },
  {
    "location": "칼빈 채플",
    "team": "여 17",
    "name": "홍기만",
    "phone": "6550"
  },
  {
    "location": "칼빈 채플",
    "team": "여 18",
    "name": "이오순",
    "phone": "7762"
  },
  {
    "location": "칼빈 채플",
    "team": "여 18",
    "name": "채연희",
    "phone": "4053"
  },
  {
    "location": "칼빈 채플",
    "team": "여 18",
    "name": "최현숙",
    "phone": "4847"
  },
  {
    "location": "칼빈 채플",
    "team": "여 18",
    "name": "최정미",
    "phone": "7882"
  },
  {
    "location": "칼빈 채플",
    "team": "여 18",
    "name": "성미자",
    "phone": "2241"
  },
  {
    "location": "칼빈 채플",
    "team": "여 18",
    "name": "이경순",
    "phone": "8226"
  },
  {
    "location": "칼빈 채플",
    "team": "여 18",
    "name": "정경희",
    "phone": "0191"
  },
  {
    "location": "칼빈 채플",
    "team": "여 18",
    "name": "이희옥",
    "phone": "0026"
  },
  {
    "location": "칼빈 채플",
    "team": "여 19",
    "name": "박미애",
    "phone": "9060"
  },
  {
    "location": "칼빈 채플",
    "team": "여 19",
    "name": "김연호",
    "phone": "5833"
  },
  {
    "location": "칼빈 채플",
    "team": "여 19",
    "name": "김영화",
    "phone": "5053"
  },
  {
    "location": "칼빈 채플",
    "team": "여 19",
    "name": "황은숙",
    "phone": "9682"
  },
  {
    "location": "칼빈 채플",
    "team": "여 19",
    "name": "한명순",
    "phone": "1289"
  },
  {
    "location": "칼빈 채플",
    "team": "여 19",
    "name": "정덕화",
    "phone": "4792"
  },
  {
    "location": "칼빈 채플",
    "team": "여 19",
    "name": "배순옥",
    "phone": "2119"
  },
  {
    "location": "칼빈 채플",
    "team": "여 19",
    "name": "김미애",
    "phone": "7233"
  },
  {
    "location": "칼빈 채플",
    "team": "여 19",
    "name": "임향순",
    "phone": "8144"
  },
  {
    "location": "칼빈 채플",
    "team": "여 19",
    "name": "김미숙",
    "phone": "6722"
  },
  {
    "location": "칼빈 채플",
    "team": "여 20",
    "name": "이현숙",
    "phone": "9735"
  },
  {
    "location": "칼빈 채플",
    "team": "여 20",
    "name": "정예순",
    "phone": "7752"
  },
  {
    "location": "칼빈 채플",
    "team": "여 20",
    "name": "홍용자",
    "phone": "7284"
  },
  {
    "location": "칼빈 채플",
    "team": "여 20",
    "name": "연양순",
    "phone": "0453"
  },
  {
    "location": "칼빈 채플",
    "team": "여 20",
    "name": "문상아",
    "phone": "1879"
  },
  {
    "location": "칼빈 채플",
    "team": "여 20",
    "name": "김순자",
    "phone": "8036"
  },
  {
    "location": "칼빈 채플",
    "team": "여 20",
    "name": "김영심",
    "phone": "5018"
  },
  {
    "location": "칼빈 채플",
    "team": "여 20",
    "name": "최현순",
    "phone": "6308"
  },
  {
    "location": "칼빈 채플",
    "team": "여 20",
    "name": "송명옥",
    "phone": "8611"
  }
]

